City_ID,City,Lat,Lng,Max Temp,Humidity,Cloudiness,Wind Speed,Country,Date
0,Seidu,9.0167,-10.6,72.61,18,51,1.81,SL,1673734412
1,San Felipe,10.3399,-68.7425,79.77,71,51,5.73,VE,1673734412
2,Jonava,55.0833,24.2833,41.05,89,100,5.75,LT,1673734413
3,Xining,36.6167,101.7667,4.6,91,95,2.17,CN,1673734413
4,Kualakapuas,-3.0091,114.3876,74.03,94,100,2.3,ID,1673734413
5,Rikitea,-23.1203,-134.9692,78.1,75,84,14.5,PF,1673734414
6,Ventspils,57.3894,21.5606,40.93,100,100,11.5,LV,1673734415
7,Kahului,20.8947,-156.47,82.98,56,20,6.91,US,1673734415
8,Mount Isa,-20.7333,139.5,76.77,78,100,8.05,AU,1673734415
9,Cayenne,4.9333,-52.3333,75.24,94,75,3.44,GF,1673734196
10,Hobart,-42.8794,147.3294,67.86,54,40,21.85,AU,1673734416
11,Saint George,37.1041,-113.5841,52.43,49,75,6.91,US,1673734416
12,Guácimo,10.2104,-83.6807,70.27,97,100,2.06,CR,1673734416
13,Hermanus,-34.4187,19.2345,68.81,74,90,13.51,ZA,1673734342
14,Tuktoyaktuk,69.4541,-133.0374,-8.32,98,98,8.16,CA,1673734417
15,Busselton,-33.65,115.3333,54.54,74,33,10.54,AU,1673734253
16,Brae,60.3964,-1.353,40.55,86,100,28.03,GB,1673734417
17,Butaritari,3.0707,172.7902,80.08,80,92,13.98,KI,1673734201
18,Kapaa,22.0752,-159.319,80.92,61,0,6.91,US,1673734293
19,Romny,50.751,33.4747,27.37,82,98,5.82,UA,1673734418
20,Nikolskoye,59.7035,30.7861,37.29,92,100,11.81,RU,1673734418
21,Ribeira Grande,38.5167,-28.7,55.78,61,54,21.99,PT,1673734419
22,Jalu,29.0331,21.5482,55.13,59,57,4.9,LY,1673734419
23,Tasiilaq,65.6145,-37.6368,23.16,59,100,16.91,GL,1673734237
24,Goderich,43.7501,-81.7165,26.91,68,4,13.06,CA,1673734311
25,Cherskiy,68.75,161.3,-37.12,99,65,1.21,RU,1673734420
26,Port Alfred,-33.5906,26.891,70.18,88,98,4.74,ZA,1673734420
27,Cape Town,-33.9258,18.4232,72.37,70,75,17.0,ZA,1673734257
28,Gizo Government Station,-8.103,156.8419,79.97,77,100,5.46,SB,1673734421
29,Port Elizabeth,-33.918,25.5701,72.1,91,100,3.44,ZA,1673734421
30,Punta Arenas,-53.15,-70.9167,53.71,54,0,27.63,CL,1673734217
31,Alofi,-19.0595,-169.9187,78.42,72,23,5.17,NU,1673734422
32,Ushuaia,-54.8,-68.3,53.26,50,40,3.44,AR,1673734322
33,San Patricio,28.017,-97.5169,71.69,45,0,12.84,US,1673734422
34,Bluff,-46.6,168.3333,60.08,70,1,0.31,NZ,1673734423
35,Avarua,-21.2078,-159.775,77.05,65,100,3.44,CK,1673734423
36,Saint-Philippe,-21.3585,55.7679,74.79,84,12,11.25,RE,1673734423
37,Chui,-33.6971,-53.4616,72.61,55,24,8.05,UY,1673734424
38,Lovozero,68.005,35.0117,30.45,85,100,1.41,RU,1673734424
39,Salinas,36.6777,-121.6555,58.98,80,75,9.22,US,1673734126
40,Nanortalik,60.1432,-45.2371,21.94,77,94,15.9,GL,1673734424
41,Chokurdakh,70.6333,147.9167,-32.87,98,100,1.72,RU,1673734133
42,Cidreira,-30.1811,-50.2056,73.18,74,100,10.33,BR,1673734425
43,Kokkola,63.8385,23.1307,32.04,97,100,3.44,FI,1673734425
44,George Town,5.4112,100.3354,76.95,94,20,3.44,MY,1673734426
45,Tiksi,71.6872,128.8694,-29.52,98,100,4.16,RU,1673734305
46,Clyde River,70.4692,-68.5914,-14.57,70,100,13.8,CA,1673734426
47,Yuba City,39.1405,-121.6169,57.24,86,75,13.8,US,1673734142
48,Bethel,41.3712,-73.414,32.02,70,100,13.8,US,1673734297
49,Chimoré,-16.9833,-65.1333,70.68,97,100,1.54,BO,1673734427
50,Barrow,71.2906,-156.7887,-7.58,84,40,18.41,US,1673734427
51,Abalak,58.1286,68.5944,9.41,97,99,7.29,RU,1673734428
52,Disna,55.568,28.1971,35.64,92,100,10.51,BY,1673734428
53,Cassilândia,-19.1133,-51.7342,72.93,92,93,5.08,BR,1673734428
54,Yellowknife,62.456,-114.3525,-1.44,77,100,8.01,CA,1673734429
55,Margate,51.3813,1.3862,44.91,74,100,5.01,GB,1673734429
56,Bandarbeyla,9.4942,50.8122,75.47,73,78,20.22,SO,1673734430
57,Jamestown,42.097,-79.2353,24.39,92,100,6.91,US,1673734430
58,Aklavik,68.2191,-135.0107,-13.23,97,100,4.16,CA,1673734430
59,Pochutla,15.7432,-96.4661,84.81,47,0,7.14,MX,1673734431
60,Luleå,65.5842,22.1547,6.87,92,77,2.3,SE,1673734431
61,Tabory,58.5198,64.5495,14.67,91,97,8.63,RU,1673734432
62,Cap Malheureux,-19.9842,57.6142,78.48,73,52,5.01,MU,1673734432
63,Mkokotoni,-5.8767,39.2547,79.21,79,89,10.09,TZ,1673734432
64,Puerto Ayora,-0.7393,-90.3518,82.36,90,84,5.99,EC,1673734433
65,Clifton,40.8584,-74.1638,34.83,65,100,14.97,US,1673734433
66,Vestmannaeyjar,63.4427,-20.2734,23.79,76,50,7.14,IS,1673734433
67,Quimper,48.0,-4.1,46.96,87,75,6.91,FR,1673734434
68,Saint Paul Harbor,57.79,-152.4072,36.91,100,100,4.61,US,1673734434
69,New Norfolk,-42.7826,147.0587,67.5,49,64,5.99,AU,1673734434
70,Caravelas,-17.7125,-39.2481,77.29,82,1,8.3,BR,1673734435
71,Listvyanskiy,54.4399,83.4984,12.67,91,100,21.0,RU,1673734435
72,Burnie,-41.0667,145.9167,63.95,61,29,15.39,AU,1673734239
73,Umm Kaddadah,13.6017,26.6876,60.4,26,68,12.62,SD,1673734436
74,Port-Gentil,-0.7193,8.7815,78.76,89,20,4.61,GA,1673734436
75,Iqaluit,63.7506,-68.5145,-10.48,94,100,4.94,CA,1673734436
76,Hithadhoo,-0.6,73.0833,80.17,67,97,11.12,MV,1673734309
77,Castro,-24.7911,-50.0119,65.97,97,91,3.98,BR,1673734217
78,Padang,-0.9492,100.3543,76.14,87,100,2.35,ID,1673734393
79,Tiznit Province,29.5833,-9.5,59.63,44,0,2.24,MA,1673734437
80,Grants Pass,42.439,-123.3284,57.83,89,75,20.71,US,1673734438
81,Acaraú,-2.8856,-40.12,80.35,79,94,15.17,BR,1673734438
82,Dikson,73.5069,80.5464,-34.73,94,16,3.58,RU,1673734438
83,Hilo,19.7297,-155.09,81.25,63,100,7.0,US,1673734439
84,Lompoc,34.6391,-120.4579,58.78,94,100,14.97,US,1673734420
85,Nouakchott,18.0858,-15.9785,69.73,26,44,10.02,MR,1673734439
86,Kaeo,-35.1,173.7833,68.32,86,21,12.39,NZ,1673734440
87,Coquimbo,-29.9533,-71.3436,69.53,64,0,13.8,CL,1673734397
88,Mataura,-46.1927,168.8643,70.74,54,3,0.56,NZ,1673734440
89,Katobu,-4.9408,122.5276,75.29,91,99,1.1,ID,1673734440
90,Havøysund,70.9963,24.6622,28.63,76,98,26.42,NO,1673734441
91,Dolisie,-4.1997,12.6739,71.56,96,95,3.49,CG,1673734442
92,Qaanaaq,77.484,-69.3632,2.95,67,100,7.05,GL,1673734147
93,Atuona,-9.8,-139.0333,78.39,73,70,11.59,PF,1673734444
94,Port Moresby,-9.4431,147.1797,79.63,79,96,3.22,PG,1673734445
95,Corpus Christi,27.8006,-97.3964,71.83,54,20,13.8,US,1673734446
96,Airai,-8.9266,125.4092,60.67,89,100,1.92,TL,1673734447
97,Ambunti,-4.2365,142.8448,74.91,98,91,2.01,PG,1673734448
98,Kiruna,67.8557,20.2251,0.52,78,47,5.75,SE,1673734448
99,Petropavlovsk-Kamchatskiy,53.0452,158.6483,14.59,86,100,20.13,RU,1673734449
100,Hong Kong,22.2855,114.1577,70.95,94,2,18.99,HK,1673734420
101,Vanimo,-2.6741,141.3028,78.55,88,90,3.22,PG,1673734451
102,Rio de Janeiro,-22.9028,-43.2075,85.96,70,40,11.5,BR,1673734452
103,Les Escoumins,48.1111,-69.0236,12.2,83,97,9.64,CA,1673734453
104,Lebu,-37.6167,-73.65,60.71,76,70,16.67,CL,1673734454
105,Vaini,-21.2,-175.2,87.96,74,40,9.22,TO,1673734455
106,Whitehorse,60.7161,-135.0538,13.01,85,99,3.0,CA,1673734456
107,Leticia,-4.2153,-69.9406,87.85,66,75,5.75,CO,1673734457
108,Bredasdorp,-34.5322,20.0403,67.82,68,97,9.51,ZA,1673734459
109,Norman Wells,65.282,-126.8329,-11.94,99,93,5.28,CA,1673734459
110,Constitución,-35.3333,-72.4167,64.4,62,19,16.82,CL,1673734460
111,Kindu,-2.95,25.95,68.67,99,100,1.88,CD,1673734462
112,Longyearbyen,78.2186,15.6401,28.24,80,75,23.02,SJ,1673734463
113,Palmas Bellas,9.2319,-80.0867,84.34,81,99,13.85,PA,1673734463
114,Grindavik,63.8424,-22.4338,19.87,63,0,6.91,IS,1673734465
115,Todos Santos,23.45,-110.2167,83.3,75,0,6.29,MX,1673734466
116,Arraial do Cabo,-22.9661,-42.0278,76.86,88,20,18.41,BR,1673734466
117,Nāgaur,27.2,73.7333,44.69,28,0,6.85,IN,1673734467
118,El Vigia,8.6219,-71.6506,80.08,83,64,2.21,VE,1673734467
119,Flinders,-34.5833,150.8552,76.37,69,5,8.99,AU,1673734468
120,Alvarães,-3.2208,-64.8042,75.07,87,94,2.62,BR,1673734469
121,Bonito,-21.1211,-56.4819,70.7,99,100,2.37,BR,1673734469
122,Port Hawkesbury,45.6169,-61.3485,51.91,95,100,6.91,CA,1673734470
123,Batagay,67.6333,134.6333,-51.63,99,97,2.44,RU,1673734471
124,Fairbanks,64.8378,-147.7164,4.6,79,100,0.0,US,1673734443
125,Broome,42.2506,-75.833,22.86,84,100,16.11,US,1673734306
126,Sumkino,58.1108,68.3244,10.15,96,97,7.65,RU,1673734472
127,Wagar,16.1525,36.2032,70.72,72,39,11.34,SD,1673734473
128,Esperance,-33.8667,121.9,57.42,71,2,11.14,AU,1673734473
129,Truth or Consequences,33.1284,-107.2528,67.91,20,0,9.22,US,1673734270
130,Rafaela,-31.2503,-61.4867,94.98,10,0,1.01,AR,1673734213
131,Baghdad,33.3406,44.4009,51.71,100,100,14.97,IQ,1673734180
132,Bathsheba,13.2167,-59.5167,79.41,73,20,14.97,BB,1673734474
133,Narsaq,60.9167,-46.05,10.62,85,81,5.64,GL,1673734474
134,Riverton,40.5219,-111.9391,50.5,55,75,21.85,US,1673734475
135,Ürümqi,43.801,87.6005,-13.85,84,20,2.24,CN,1673734441
136,Castaños,26.7833,-101.4167,71.19,20,0,8.05,MX,1673734204
137,Pevek,69.7008,170.3133,-23.69,99,10,3.33,RU,1673734475
138,Carrickmacross,53.9728,-6.7189,37.67,83,5,19.13,IE,1673734476
139,Albany,42.6001,-73.9662,27.34,77,64,1.01,US,1673734476
140,Sitka,57.0531,-135.33,42.69,81,100,4.61,US,1673734477
141,Chu,43.5983,73.7614,-6.65,92,5,5.82,KZ,1673734477
142,Tarko-Sale,64.9225,77.785,-24.14,100,58,4.0,RU,1673734478
143,Atambua,-9.1061,124.8925,74.35,89,100,2.3,ID,1673734478
144,Ust'-Omchug,61.15,149.6333,-28.5,97,100,7.94,RU,1673734479
145,Cabo San Lucas,22.8909,-109.9124,81.61,25,0,8.05,MX,1673734479
146,Puerto Escondido,15.85,-97.0667,85.03,61,20,5.75,MX,1673734479
147,Coolum Beach,-26.5333,153.1,80.11,74,99,1.99,AU,1673734471
148,Mahébourg,-20.4081,57.7,78.26,83,40,10.36,MU,1673734480
149,Deputatsky,69.3,139.9,-29.6,98,100,1.45,RU,1673734480
150,Mahibadhoo,3.7833,72.9667,79.41,69,87,6.78,MV,1673734481
151,Mar del Plata,-38.0023,-57.5575,71.83,75,0,13.0,AR,1673734405
152,Santa Cruz Cabrália,-16.2781,-39.0247,79.03,83,40,11.5,BR,1673734481
153,Buala,-8.145,159.5921,77.59,84,100,2.35,SB,1673734482
154,Kudahuvadhoo,2.6708,72.8944,79.47,72,74,8.46,MV,1673734482
155,Bassano,50.7834,-112.4685,21.63,86,55,7.02,CA,1673734482
156,Buchanan,5.8808,-10.0467,78.69,85,31,5.12,LR,1673734483
157,Sombrio,-29.1139,-49.6167,72.93,94,99,3.74,BR,1673734484
158,Aswān,24.0934,32.907,57.33,46,23,8.37,EG,1673734484
159,Cascas,-7.4833,-78.8167,69.6,69,79,8.05,PE,1673734484
160,Arroio dos Ratos,-30.0772,-51.7292,75.43,66,100,8.05,BR,1673734485
161,Beringovskiy,63.05,179.3167,-1.84,94,100,17.72,RU,1673734342
162,Isangel,-19.55,169.2667,82.02,68,37,12.41,VU,1673734485
163,Carnarvon,-24.8667,113.6333,75.42,79,5,16.31,AU,1673734486
164,Mossamedes,-15.1961,12.1522,73.63,74,25,5.77,AO,1673734486
165,Jinxiang,27.4327,120.6062,50.54,83,100,13.67,CN,1673734487
166,Loralai,30.3705,68.598,32.88,23,0,5.19,PK,1673734487
167,Half Moon Bay,37.4636,-122.4286,59.88,84,0,17.27,US,1673734487
168,Dingle,10.9995,122.6711,73.85,95,100,4.25,PH,1673734488
169,Ciriè,45.2351,7.5988,44.44,73,0,2.3,IT,1673734488
170,Mahajanga,-15.7167,46.3167,77.02,94,40,2.3,MG,1673734488
171,Tabou,4.423,-7.3528,79.59,83,19,8.34,CI,1673734489
172,Waddān,29.1614,16.139,53.01,71,60,4.27,LY,1673734490
173,Tocopilla,-22.092,-70.1979,71.65,66,9,7.14,CL,1673734490
174,San Miguel de Cozumel,20.5083,-86.9458,77.07,53,20,12.66,MX,1673734439
175,Pyaozerskiy,65.8333,31.1667,32.99,98,100,4.16,RU,1673734491
176,Tabas,33.5959,56.9244,35.49,25,94,2.08,IR,1673734491
177,Bambous Virieux,-20.3428,57.7575,78.22,83,40,10.36,MU,1673734492
178,Arlit,18.7369,7.3853,64.92,21,84,5.77,NE,1673734492
179,Belaya Gora,68.5333,146.4167,-29.33,97,100,3.11,RU,1673734492
180,Faanui,-16.4833,-151.75,79.65,74,100,12.46,PF,1673734493
181,Nantucket,41.2835,-70.0995,41.14,97,100,27.63,US,1673734493
182,Kirkwall,58.9848,-2.9587,41.05,87,100,36.82,GB,1673734493
183,Horta,38.5333,-28.6333,55.02,61,56,21.99,PT,1673734448
184,St. George's,12.0564,-61.7485,80.28,78,20,16.11,GD,1673734494
185,Khorixas,-20.3667,14.9667,67.82,64,84,5.68,NA,1673734494
186,Grootfontein,-19.5667,18.1167,71.92,50,95,8.19,NA,1673734494
187,Asunción Nochixtlán,17.4667,-97.2333,61.77,38,0,8.05,MX,1673734495
188,Chapais,49.7834,-74.8492,-1.77,92,3,1.92,CA,1673734375
189,Harrison,30.4091,-89.0436,56.05,38,0,9.22,US,1673734495
190,Bonavista,48.6499,-53.1147,36.52,99,100,7.11,CA,1673734496
191,Saskylakh,71.9167,114.0833,-49.76,100,66,2.64,RU,1673734496
192,Mzimba,-11.9,33.6,62.26,93,98,3.33,MW,1673734496
193,Beyneu,45.3167,55.2,22.48,71,0,14.74,KZ,1673734497
194,Solwezi,-12.1688,26.3894,60.42,97,96,1.97,ZM,1673734497
195,Montepuez,-13.1256,38.9997,69.48,99,100,3.38,MZ,1673734497
196,Makaha,21.4694,-158.2175,82.31,50,75,4.61,US,1673734498
197,Khandela,27.6,75.5,38.1,39,1,5.21,IN,1673734498
198,Crotone,39.0851,17.1178,52.29,76,5,17.85,IT,1673734499
199,Port Lincoln,-34.7333,135.8667,63.46,62,100,18.21,AU,1673734499
200,Griffith,41.5284,-87.4237,31.89,73,0,6.91,US,1673734365
201,Kavieng,-2.5744,150.7967,82.85,75,87,8.43,PG,1673734255
202,Upernavik,72.7868,-56.1549,6.17,76,100,5.12,GL,1673734500
203,Zhigansk,66.7697,123.3711,-62.79,99,93,3.62,RU,1673734334
204,University Place,47.2356,-122.5504,58.42,78,0,9.22,US,1673734384
205,Zhangye,38.9342,100.4517,4.93,84,100,3.96,CN,1673734500
206,Kikwit,-5.041,18.8162,69.66,86,100,2.37,CD,1673734501
207,Khatanga,71.9667,102.5,-37.35,97,100,2.82,RU,1673734241
208,Dongsheng,39.8161,109.9776,1.49,42,0,14.94,CN,1673734501
209,Kaitangata,-46.2817,169.8464,65.57,64,4,2.06,NZ,1673734503
210,Sinnamary,5.3833,-52.95,75.43,90,100,7.9,GF,1673734505
211,Saldanha,-33.0117,17.9442,64.49,83,39,21.34,ZA,1673734506
212,Almaznyy,48.0448,40.045,24.6,93,100,14.38,RU,1673734507
213,Mariehamn,60.0973,19.9348,35.46,100,100,5.75,AX,1673734508
214,Maple Creek,49.9168,-109.4848,39.18,81,100,6.85,CA,1673734510
215,Hayden,47.766,-116.7866,45.39,93,0,9.22,US,1673734462
216,Tommot,58.9564,126.2925,-32.24,99,100,2.13,RU,1673734511
217,Paamiut,61.994,-49.6678,18.91,87,97,14.63,GL,1673734512
218,Bitung,1.4451,125.1824,77.85,82,96,2.19,ID,1673734513
219,Kavaratti,10.5669,72.642,80.08,66,26,12.46,IN,1673734514
220,Saint-Augustin,51.226,-58.6502,13.19,94,100,14.85,CA,1673734514
221,Katsuura,35.1333,140.3,55.9,81,98,17.02,JP,1673734515
222,Luganville,-15.5333,167.1667,78.37,87,97,0.38,VU,1673734516
223,Eldorado,-23.7869,-54.2836,73.42,87,93,5.73,BR,1673734518
224,Tazovsky,67.4667,78.7,-23.37,96,83,7.85,RU,1673734519
225,Takoradze,4.8845,-1.7554,79.83,81,3,8.75,GH,1673734519
226,Fort Saint James,54.4333,-124.25,33.73,99,100,1.52,CA,1673734520
227,San Vicente,-26.6167,-54.1333,71.11,80,89,2.24,AR,1673734521
228,City of San Pedro,14.35,121.0167,76.23,92,75,2.3,PH,1673734522
229,Siavonga,-16.5382,28.7088,74.3,85,100,4.29,ZM,1673734523
230,Khovd,48.0056,91.6419,-7.53,78,13,1.43,MN,1673734247
231,Nema,57.5067,50.5011,16.0,86,100,13.04,RU,1673734525
232,Auki,-8.7676,160.7034,77.43,87,100,3.15,SB,1673734526
233,Khorramshahr,30.4397,48.1664,60.75,91,91,12.35,IR,1673734527
234,Virginia Beach,36.8529,-75.978,37.44,68,100,18.41,US,1673734522
235,Três Coroas,-29.5169,-50.7778,78.44,89,100,3.27,BR,1673734528
236,Nyimba,-14.5566,30.8149,67.39,98,100,3.44,ZM,1673734529
237,Westport,41.1415,-73.3579,34.32,71,100,12.66,US,1673734250
238,Kulhudhuffushi,6.6221,73.07,78.84,76,27,7.36,MV,1673734530
239,Bengkulu,-3.8004,102.2655,74.73,87,100,3.65,ID,1673734531
240,Hofn,64.2539,-15.2082,18.37,67,0,19.33,IS,1673734531
241,Locri,38.2414,16.2623,52.61,80,11,5.91,IT,1673734532
242,Ancud,-41.8697,-73.8203,57.42,72,42,4.38,CL,1673734337
243,Karaton,-6.3424,106.1045,73.17,86,100,5.19,ID,1673734532
244,Yumen,40.2833,97.2,4.87,85,99,16.22,CN,1673734384
245,Mahanje,-9.9333,35.3333,64.9,97,100,2.51,TZ,1673734533
246,East London,-33.0153,27.9116,72.55,83,100,5.82,ZA,1673734282
247,Kumano,34.3442,132.5894,47.32,86,75,5.48,JP,1673734533
248,Sur,22.5667,59.5289,66.47,52,0,13.58,OM,1673734534
249,Faya,18.3851,42.4509,52.32,83,75,4.52,SA,1673734534
250,Iisalmi,63.5592,27.1907,33.4,99,100,6.08,FI,1673734535
251,Garoua,9.3,13.4,74.03,19,99,4.14,CM,1673734536
252,Iquitos,-3.7481,-73.2472,80.64,78,75,2.3,PE,1673734536
253,Manggar,-2.8833,108.2667,77.05,88,93,6.67,ID,1673734537
254,Vao,-22.6667,167.4833,76.53,76,71,18.95,NC,1673734537
255,Piojó,10.7485,-75.1078,79.36,77,88,15.77,CO,1673734539
256,Yar-Sale,66.8333,70.8333,-12.44,99,80,8.1,RU,1673734539
257,Ferrol,43.4832,-8.2369,50.68,96,100,15.37,ES,1673734539
258,Portadown,54.4241,-6.4412,39.02,69,66,21.99,GB,1673734540
259,Fare,-16.7,-151.0167,79.83,74,100,11.27,PF,1673734540
260,Poya,-21.35,165.15,81.59,63,11,4.59,NC,1673734540
261,Palomares,17.15,-95.0667,71.22,68,55,11.36,MX,1673734541
262,Verāval,20.9,70.3667,61.92,42,0,11.54,IN,1673734541
263,Umluj,25.0213,37.2685,65.19,58,17,10.76,SA,1673734541
264,Yangi Marg`ilon,40.4272,71.7189,9.32,85,3,2.3,UZ,1673734542
265,Hamilton,39.1834,-84.5333,36.59,62,0,9.22,US,1673734394
266,Provideniya,64.3833,-173.3,0.36,92,100,15.12,RU,1673734342
267,Poum,-20.2333,164.0167,81.36,72,52,16.96,NC,1673734413
268,Imbituba,-28.24,-48.6703,73.4,93,84,6.06,BR,1673734542
269,Honningsvåg,70.9821,25.9704,28.15,69,100,21.85,NO,1673734543
270,Granja,-3.1203,-40.8261,78.75,78,91,8.01,BR,1673734543
271,Kloulklubed,7.0419,134.2556,73.9,78,82,8.86,PW,1673734543
272,Omsukchan,62.5333,155.8,-24.92,98,100,5.93,RU,1673734544
273,Mason City,43.1536,-93.201,32.58,85,100,16.28,US,1673734544
274,Kruisfontein,-34.0033,24.7314,69.89,85,79,2.3,ZA,1673734545
275,Thompson,55.7435,-97.8558,1.42,90,100,8.55,CA,1673734526
276,Kamenka,51.3223,42.7678,11.86,89,9,11.12,RU,1673734545
277,Fort Nelson,58.8053,-122.7002,6.94,85,99,1.59,CA,1673734529
278,Saint Anthony,45.0205,-93.218,32.14,79,0,11.5,US,1673734546
279,Mehamn,71.0357,27.8492,27.63,81,96,14.32,NO,1673734546
280,Antalaha,-14.9003,50.2788,74.01,85,54,5.61,MG,1673734546
281,São Félix do Xingu,-6.6447,-51.995,73.49,96,92,1.39,BR,1673734547
282,Luwuk,-0.9516,122.7875,76.77,80,97,2.26,ID,1673734372
283,Dezhou,37.4486,116.2925,19.15,23,100,3.49,CN,1673734548
284,Lodja,-3.4833,23.4333,67.12,99,87,2.17,CD,1673734548
285,Burley,42.5357,-113.7928,49.3,46,75,3.44,US,1673734548
286,Raudeberg,61.9875,5.1352,36.27,72,100,13.22,NO,1673734549
287,Nara,34.6851,135.8049,51.91,33,98,3.6,JP,1673734549
288,Hervey Bay,-25.2986,152.8535,75.88,78,100,16.33,AU,1673734550
289,Glendive,47.1053,-104.7125,43.18,92,40,3.44,US,1673734550
290,Tieli,46.95,128.05,-23.17,96,10,4.76,CN,1673734551
291,Alugan,12.2188,125.4808,77.16,88,100,3.76,PH,1673734551
292,Santa Maria,-29.6842,-53.8069,77.16,62,98,4.7,BR,1673734552
293,Mabaruma,8.2,-59.7833,72.57,96,81,3.27,GY,1673734552
294,Yeppoon,-23.1333,150.7333,73.18,89,100,16.15,AU,1673734552
295,Tsimmerbude,54.675,20.1347,41.05,73,100,22.55,RU,1673734504
296,Lüderitz,-26.6481,15.1594,66.38,69,0,20.24,NA,1673734553
297,Leh,34.1667,77.5833,-1.57,85,67,2.62,IN,1673734553
298,Carutapera,-1.195,-46.02,77.77,83,72,6.2,BR,1673734554
299,Watsa,3.0372,29.5355,67.69,50,43,2.75,CD,1673734554
300,Sainte-Marie,-20.8968,55.5496,77.13,81,40,13.8,RE,1673734554
301,Port Macquarie,-31.4333,152.9167,78.89,67,5,7.67,AU,1673734555
302,Lagoa,39.05,-27.9833,54.45,54,25,24.83,PT,1673734555
303,Moroni,-11.7022,43.2551,79.14,78,99,3.0,KM,1673734291
304,Hatillo,18.4863,-66.8254,81.79,72,91,4.59,PR,1673734556
305,Nālūt,30.3333,10.85,47.91,57,0,7.7,LY,1673734556
306,Katastari,37.8333,20.7667,46.29,73,99,3.94,GR,1673734557
307,San Quintín,30.4833,-115.95,62.98,62,88,8.48,MX,1673734557
308,Comodoro Rivadavia,-45.8667,-67.5,60.66,55,0,13.8,AR,1673734558
309,Asău,46.4333,26.4,31.28,93,63,2.57,RO,1673734559
310,Jiexiu,37.0244,111.9125,17.04,48,100,8.84,CN,1673734559
311,Namatanai,-3.6667,152.4333,80.69,80,77,4.68,PG,1673734559
312,Souillac,-20.5167,57.5167,77.38,83,40,10.36,MU,1673734560
313,Barra de Tecoanapa,16.5167,-98.75,83.01,64,0,10.71,MX,1673734560
314,Esmeraldas,-19.7625,-44.3139,81.46,88,100,4.34,BR,1673734560
315,Dutlwe,-23.9833,23.9,77.54,32,77,8.19,BW,1673734561
316,Catuday,16.2923,119.8062,77.07,78,34,12.88,PH,1673734561
317,Ikungi,-5.1333,34.7667,60.66,89,100,4.52,TZ,1673734562
318,Touros,-5.1989,-35.4608,80.08,75,100,14.9,BR,1673734563
319,Cockburn Town,21.4612,-71.1419,76.96,78,75,9.22,TC,1673734564
320,Luga,58.7372,29.8453,36.41,94,100,11.32,RU,1673734565
321,Husavik,66.0449,-17.3389,18.48,72,100,7.61,IS,1673734307
322,Saurimo,-9.6608,20.3916,65.12,98,100,3.04,AO,1673734566
323,Asilah,35.465,-6.0348,51.76,83,38,4.23,MA,1673734567
324,Mandiana,10.6333,-8.6833,77.09,16,55,5.01,GN,1673734568
325,Juneau,58.3019,-134.4197,37.09,97,100,0.0,US,1673734323
326,Constantine,36.365,6.6147,40.41,87,0,0.0,DZ,1673734570
327,Vung Tau,10.346,107.0843,76.21,89,42,6.96,VN,1673734570
328,Mindelo,16.8901,-24.9804,71.15,73,20,25.32,CV,1673734571
329,Fayetteville,35.0527,-78.8784,46.89,48,100,10.36,US,1673734293
330,Christchurch,-43.5333,172.6333,73.42,56,6,11.5,NZ,1673734340
331,Santander Jiménez,24.2167,-98.4667,74.17,26,0,12.55,MX,1673734573
332,Ciudad Bolivar,8.1222,-63.5497,85.8,48,28,5.35,VE,1673734574
333,Ugoofaaru,5.6667,73.0,79.25,70,37,8.01,MV,1673734575
334,Taoudenni,22.6783,-3.9836,66.69,20,0,12.82,ML,1673734576
335,Fenoarivo,-18.933,47.4354,64.47,100,75,4.61,MG,1673734576
336,La Ronge,55.1001,-105.2842,15.33,95,100,8.9,CA,1673734528
337,Marsh Harbour,26.5412,-77.0636,61.5,55,71,30.49,BS,1673734578
338,Perth,-31.9333,115.8333,63.03,57,0,17.27,AU,1673734579
339,Tavira,37.1273,-7.6486,53.47,69,51,4.03,PT,1673734579
340,El Carrizo,24.0261,-106.8814,79.75,44,0,7.38,MX,1673734581
341,Arman',59.7,150.1667,-8.99,97,100,12.59,RU,1673734581
342,Los Llanos de Aridane,28.6585,-17.9182,62.35,71,75,8.99,ES,1673734582
343,Ballybofey,54.8,-7.7833,39.74,76,74,19.15,IE,1673734582
344,Zhezkazgan,47.8043,67.7144,-7.2,90,36,4.03,KZ,1673734583
345,Fortuna,40.5982,-124.1573,54.66,77,40,9.22,US,1673734584
346,Ergani,38.2653,39.7621,36.99,98,100,2.73,TR,1673734585
347,Palmer,42.1584,-72.3287,32.63,69,75,14.97,US,1673734523
348,Lorengau,-2.0226,147.2712,83.08,75,100,10.45,PG,1673734586
349,Saint-Pierre,-21.3393,55.4781,74.91,73,0,4.61,RE,1673734588
350,Gorom-Gorom,14.4439,-0.2361,70.03,12,31,9.62,BF,1673734589
351,Missoula,47.0166,-113.8009,34.84,83,100,1.41,US,1673734590
352,Ormara,25.2088,64.6357,56.57,27,0,11.68,PK,1673734590
353,Kenora,49.8167,-94.4337,22.17,86,100,6.91,CA,1673734487
354,Nishihara,26.1842,127.7558,69.46,94,75,8.05,JP,1673734591
355,Pallasovka,50.05,46.8833,16.09,66,3,13.09,RU,1673734591
356,Rovaniemi,66.5,25.7167,22.41,100,100,3.44,FI,1673734592
357,Nicoya,10.1483,-85.452,82.51,56,93,18.25,CR,1673734592
358,Tessalit,20.1986,1.0114,66.51,18,50,9.55,ML,1673734593
359,Kilindoni,-7.9139,39.6668,81.25,76,86,10.89,TZ,1673734593
360,Lappeenranta,61.0587,28.1887,39.78,99,100,13.8,FI,1673734593
361,Ginir,7.1333,40.7,57.13,51,0,4.32,ET,1673734594
362,Quebo,11.3333,-14.9333,70.68,72,48,3.87,GW,1673734594
363,Inírida,3.8653,-67.9239,78.19,88,63,1.21,CO,1673734595
364,La Romana,18.4273,-68.9728,79.16,94,75,6.91,DO,1673734595
365,Muzhi,65.3667,64.6667,2.08,95,76,4.36,RU,1673734595
366,São Lourenço do Sul,-31.3653,-51.9783,73.72,62,83,7.9,BR,1673734596
367,Praxédis Guerrero,31.3667,-106.0167,71.06,18,26,8.95,MX,1673734596
368,Luena,-11.7833,19.9167,62.82,96,100,3.85,AO,1673734596
369,Bentiu,9.2333,29.8333,74.48,24,0,6.69,SS,1673734597
370,Severo-Kuril'sk,50.6789,156.125,18.48,79,98,30.96,RU,1673734597
371,Pemberton,50.3164,-122.8027,42.49,98,100,1.99,CA,1673734525
372,Ponta do Sol,32.6667,-17.1,63.72,71,69,3.71,PT,1673734598
373,Yuli,9.6989,10.2744,70.79,24,53,6.11,NG,1673734598
374,Svobodnyy,51.4,128.1333,-20.13,97,100,2.89,RU,1673734598
375,Burgos,42.3394,-3.7079,46.81,87,100,17.27,ES,1673734599
376,Warrington,53.3925,-2.5802,42.87,75,20,21.85,GB,1673734599
377,Evensk,61.95,159.2333,8.8,65,100,20.33,RU,1673734361
378,San Cristobal,7.7669,-72.225,77.18,66,60,0.78,VE,1673734600
379,Shaunavon,49.6501,-108.4181,35.38,91,100,8.3,CA,1673734600
380,Ostrovnoy,68.0531,39.5131,34.0,90,96,14.97,RU,1673734600
381,Sisimiut,66.9395,-53.6735,10.33,64,21,15.77,GL,1673734601
382,Luckenwalde,52.0833,13.1667,46.72,91,100,13.0,DE,1673734601
383,Azángaro,-14.9167,-70.2167,63.03,14,26,11.07,PE,1673734601
384,Majene,-3.5403,118.9707,76.59,86,93,2.26,ID,1673734602
385,Guangzhou,23.1167,113.25,60.87,68,97,16.73,CN,1673734602
386,Makakilo City,21.3469,-158.0858,80.92,49,0,6.91,US,1673734603
387,Port Hardy,50.6996,-127.4199,48.38,93,100,8.05,CA,1673734603
388,Xunchang,28.4543,104.715,33.46,95,100,4.52,CN,1673734603
389,Jesup,31.6074,-81.8854,48.34,42,10,8.16,US,1673734604
390,Aljezur,37.3191,-8.8033,53.83,86,92,2.77,PT,1673734604
391,Vostok,46.4856,135.8833,-27.8,97,9,4.54,RU,1673734604
392,Chicama,-7.8447,-79.1469,68.54,62,65,8.88,PE,1673734605
393,Muros,42.7762,-9.0603,58.68,91,79,7.81,ES,1673734605
394,Azul,-36.777,-59.8585,92.46,12,0,2.91,AR,1673734606
395,Zheleznogorsk,52.331,35.3711,20.95,95,77,7.56,RU,1673734606
396,Novoraychikhinsk,49.7798,129.594,-31.4,99,67,4.27,RU,1673734606
397,Dumas,35.8656,-101.9732,71.53,13,0,21.85,US,1673734607
398,Denpasar,-8.65,115.2167,76.71,100,75,3.44,ID,1673734607
399,Dawson,31.7735,-84.4466,47.62,43,0,12.62,US,1673734603
400,Nelson Bay,-32.7167,152.15,76.1,71,3,5.01,AU,1673734608
401,Japura,-0.3167,102.35,72.36,99,100,1.3,ID,1673734608
402,Anloga,5.7947,0.8973,79.93,82,8,8.05,GH,1673734608
403,Kemin,42.7846,75.6892,8.46,65,0,5.39,KG,1673734609
404,Dédougou,12.4667,-3.4667,73.04,12,47,7.76,BF,1673734609
405,Nome,64.5011,-165.4064,15.87,73,75,16.11,US,1673734515
406,Romanovo,52.6182,81.2271,11.55,86,100,22.35,RU,1673734610
407,Berbera,10.4396,45.0143,76.28,79,4,9.28,SO,1673734610
408,Smithers,54.7804,-127.1743,34.12,93,75,2.3,CA,1673734610
409,Mahuva,21.0914,71.7622,60.42,44,1,12.71,IN,1673734611
410,Saraland,30.8207,-88.0706,56.12,43,0,6.15,US,1673734352
411,Cañon City,38.441,-105.2424,64.27,19,0,23.02,US,1673734611
412,Nefteyugansk,61.0998,72.6035,7.57,97,98,9.15,RU,1673734343
413,Dicabisagan,17.0818,122.4157,73.58,91,71,2.28,PH,1673734612
414,Prenzlau,53.3167,13.8667,47.21,89,100,23.02,DE,1673734612
415,Sajanan,37.0573,9.2426,52.72,90,85,5.68,TN,1673734612
416,Katherine,-14.4667,132.2667,79.12,83,100,8.05,AU,1673734613
417,Rio Grande,-32.035,-52.0986,77.11,62,100,10.51,BR,1673734613
418,Srednekolymsk,67.45,153.6833,-32.89,100,100,1.45,RU,1673734341
419,Tawang Town,27.5833,91.8667,28.69,77,55,3.22,IN,1673734613
420,Beloha,-25.1667,45.05,75.0,78,6,15.41,MG,1673734614
421,Yarkovo,57.4028,67.0786,12.04,94,93,8.25,RU,1673734614
422,Natitingou,10.3042,1.3796,72.82,18,26,5.1,BJ,1673734615
423,Belyy Yar,53.6039,91.3903,21.09,67,100,24.61,RU,1673734615
424,Fairmont,39.4851,-80.1426,30.38,70,77,4.0,US,1673734615
425,Marystown,47.1666,-55.1483,46.98,97,100,22.37,CA,1673734616
426,Vila Franca do Campo,37.7167,-25.4333,54.01,68,63,23.33,PT,1673734616
427,Tilichiki,60.4667,166.1,-5.89,96,100,10.98,RU,1673734616
428,Rørvik,64.8621,11.2373,29.88,76,100,13.69,NO,1673734617
429,Kieta,-6.2167,155.6333,80.04,81,100,1.28,PG,1673734617
430,Zacualpan,21.25,-105.1667,94.62,47,0,5.44,MX,1673734618
431,Banjar,-8.19,114.9675,77.04,90,99,2.46,ID,1673734618
432,Gushikawa,26.3544,127.8686,69.39,94,75,0.0,JP,1673734619
433,Marrakesh,31.6315,-8.0083,60.87,44,0,3.44,MA,1673734511
434,Bagotville,-28.9833,153.4167,73.85,87,84,4.18,AU,1673734619
435,Palana,59.1167,159.9667,6.87,88,100,3.44,RU,1673734620
436,Innoshima,34.2833,133.1833,51.57,82,99,1.68,JP,1673734620
437,Laas,46.6166,10.7002,36.48,75,98,2.46,IT,1673734620
438,Portland,45.5234,-122.6762,52.54,88,100,14.0,US,1673734486
439,Manzhouli,49.6,117.4333,-15.25,88,16,11.03,CN,1673734621
440,Prainha,-1.8,-53.48,76.28,88,100,4.52,BR,1673734621
441,Santiago,-33.4569,-70.6483,83.86,29,0,17.27,CL,1673734510
442,Sechura,-5.5569,-80.8222,78.13,57,30,15.86,PE,1673734623
443,Bundaberg,-24.85,152.35,72.21,97,100,5.01,AU,1673734624
444,Khasan,42.4308,130.6434,9.43,49,33,12.35,RU,1673734625
445,Farias Brito,-6.9306,-39.5656,79.48,62,72,4.52,BR,1673734626
446,Vardø,70.3705,31.1107,28.31,85,90,10.78,NO,1673734357
447,Belmonte,-15.8631,-38.8828,77.54,82,9,8.84,BR,1673734629
448,Horsham,51.064,-0.3272,45.64,78,0,10.36,GB,1673734631
449,Antibes,43.5624,7.1278,51.67,81,75,10.36,FR,1673734632
450,Kaseda-shirakame,31.4167,130.3167,59.16,84,49,8.93,JP,1673734632
451,Sault Ste. Marie,46.5168,-84.3333,25.36,68,0,6.91,CA,1673734612
452,Inhambane,-23.865,35.3833,79.21,80,3,11.68,MZ,1673734634
453,Torrijos,39.9819,-4.2835,46.85,85,97,6.96,ES,1673734634
454,Porbandar,21.6422,69.6093,62.15,40,0,11.03,IN,1673734635
455,Honiara,-9.4333,159.95,76.32,94,100,5.21,SB,1673734636
456,Oyem,1.5995,11.5793,69.76,85,52,2.66,GA,1673734636
457,Kumbo,6.2,10.6667,60.4,34,5,4.52,CM,1673734637
458,Santa Rosa,14.3122,121.1114,76.98,95,100,5.28,PH,1673734638
459,Roald,62.5833,6.1333,35.76,75,0,11.5,NO,1673734639
460,Petrov Val,50.1434,45.2096,10.4,89,5,8.95,RU,1673734639
461,Pisco,-13.7,-76.2167,75.25,64,0,5.75,PE,1673734640
462,Karatau,43.1667,70.4667,-2.09,94,22,2.42,KZ,1673734642
463,Bud,39.447,-86.1758,33.67,76,2,4.63,US,1673734642
464,Scarborough,54.2797,-0.4044,41.65,80,23,17.0,GB,1673734525
465,Canberra,-35.2835,149.1281,77.45,71,4,5.01,AU,1673734505
466,Sorong,-0.8833,131.25,79.0,82,100,4.07,ID,1673734643
467,Östersund,63.1792,14.6357,16.25,100,100,5.75,SE,1673734644
468,Ciudad del Carmen,18.6333,-91.8333,73.44,60,75,9.22,MX,1673734644
469,Gusinoye Ozero,51.1144,106.2614,-23.67,97,56,2.06,RU,1673734645
470,Guerrero Negro,27.9769,-114.0611,67.6,45,55,12.12,MX,1673734646
471,Malanville,11.8685,3.3899,71.6,18,16,8.16,BJ,1673734646
472,Laguna,38.421,-121.4238,59.11,87,40,17.27,US,1673734646
473,Araouane,18.9048,-3.5265,68.81,16,60,10.45,ML,1673734647
474,Wukari,7.85,9.7833,74.5,21,12,4.54,NG,1673734648
475,Verkhniy Avzyan,53.5289,57.5372,4.48,88,100,3.02,RU,1673734649
476,Dauphin,51.1494,-100.0502,12.34,85,75,9.22,CA,1673734649
477,Praia,14.9215,-23.5087,72.14,73,0,16.11,CV,1673734650
478,Colonia Carlos Antonio López,-26.4,-54.7667,78.12,62,98,2.66,PY,1673734650
479,Huilong,31.8111,121.655,32.94,73,100,20.98,CN,1673734651
480,Fuxin,42.0156,121.6589,4.46,37,0,2.75,CN,1673734651
481,Yablochnyy,47.1661,142.0661,-5.24,86,56,6.76,RU,1673734651
482,Mount Gambier,-37.8333,140.7667,61.79,56,42,13.73,AU,1673734652
483,Gobabis,-22.45,18.9667,76.91,37,84,16.53,NA,1673734652
484,Yukhnov,54.7444,35.2297,26.69,92,100,8.08,RU,1673734653
485,Pemba,-12.974,40.5178,81.3,94,75,1.14,MZ,1673734653
486,Rurrenabaque,-14.4413,-67.5278,70.09,99,100,2.3,BO,1673734654
487,Okhotsk,59.3833,143.3,-27.35,87,100,10.76,RU,1673734654
488,Garoowe,8.4054,48.4845,68.43,81,3,13.87,SO,1673734654
489,Māngrol,21.1167,70.1167,60.73,42,0,11.52,IN,1673734655
490,Penzance,50.1186,-5.5371,43.48,60,100,32.5,GB,1673734655
491,Copiapó,-27.3667,-70.3333,65.89,38,0,7.56,CL,1673734656
492,Alta Floresta,-9.8756,-56.0861,72.97,96,100,1.99,BR,1673734656
493,Presidente Médici,-11.1753,-61.9014,77.2,90,54,3.62,BR,1673734656
494,Matagami,49.7502,-77.6328,-0.29,85,0,4.61,CA,1673734657
495,Phan Thiet,10.9333,108.1,73.35,94,57,2.75,VN,1673734657
496,Kunigal,13.0222,77.0267,61.25,50,98,5.37,IN,1673734658
497,Bubaque,11.2833,-15.8333,77.52,68,43,10.16,GW,1673734658
498,Kondinskoye,59.6481,67.41,9.16,96,74,7.56,RU,1673734658
499,Dolores,-36.3132,-57.6792,76.26,49,0,19.51,AR,1673734659
500,Lensk,60.7253,114.9278,-38.36,100,100,1.97,RU,1673734659
501,Talnakh,69.4865,88.3972,-38.0,86,3,2.95,RU,1673734659
502,Springbok,-29.6643,17.8865,72.9,35,1,4.32,ZA,1673734660
503,Shimoda,34.6667,138.95,54.1,87,61,13.09,JP,1673734660
504,Trat,12.5,102.5,69.35,91,3,1.41,TH,1673734661
505,Ushtobe,45.2514,77.9838,-6.54,90,23,2.42,KZ,1673734374
506,Tahe,52.3333,124.7333,-13.67,92,100,0.96,CN,1673734662
507,Camacupa,-12.0167,17.4833,61.21,94,100,2.75,AO,1673734662
508,Moree,-29.4667,149.85,75.0,54,0,11.01,AU,1673734662
509,Sambava,-14.2667,50.1667,74.3,88,85,5.1,MG,1673734457
510,Hasaki,35.7333,140.8333,52.21,76,100,19.62,JP,1673734663
511,Herat Province,34.5,62.0,12.97,56,5,2.64,AF,1673734664
512,Taksimo,56.3444,114.8794,-19.5,93,100,1.77,RU,1673734664
513,Córdoba,-31.4135,-64.1811,90.99,26,20,6.91,AR,1673734664
514,Pangnirtung,66.1451,-65.7125,-10.37,99,100,3.49,CA,1673734665
515,Burē,10.7,37.0667,57.88,66,25,6.44,ET,1673734665
516,Paka,4.6374,103.4368,75.13,100,99,2.3,MY,1673734666
517,Sibolga,1.7427,98.7792,75.06,90,94,2.82,ID,1673734666
518,Waltershausen,50.9,10.5667,48.06,97,100,21.0,DE,1673734666
519,Champerico,14.3,-91.9167,88.34,63,1,10.13,GT,1673734667
520,Makkah al Mukarramah,21.4267,39.8261,68.43,67,84,4.56,SA,1673734667
521,Krasnyy Chikoy,50.3643,108.7512,-26.64,99,86,1.83,RU,1673734667
522,Winchester,51.0651,-1.3187,45.48,79,20,11.5,GB,1673734668
523,Matara,5.9485,80.5353,73.33,91,93,2.37,LK,1673734668
524,Redlands,34.0556,-117.1825,54.34,88,100,8.01,US,1673734624
525,Camaçari,-12.6975,-38.3242,80.37,81,92,7.23,BR,1673734669
526,Salalah,17.0151,54.0924,75.29,73,75,3.44,OM,1673734669
527,Tindwāri,25.6167,80.5333,49.93,68,0,7.65,IN,1673734669
528,Khuzhir,53.1939,107.3397,3.24,88,100,7.4,RU,1673734670
529,Kattivākkam,13.2167,80.3167,71.69,73,98,2.06,IN,1673734670
530,Indri,29.88,77.0711,42.82,48,0,7.78,IN,1673734670
531,Bulgan,48.8125,103.5347,-12.48,83,30,4.38,MN,1673734671
532,Novy Urengoy,66.0833,76.6333,-27.47,100,38,3.94,RU,1673734671
533,Thinadhoo,0.5333,72.9333,79.9,65,75,10.11,MV,1673734672
534,Naze,28.3667,129.4833,65.32,90,83,7.94,JP,1673734672
535,Seoul,37.5683,126.9778,37.0,93,100,8.05,KR,1673734606
536,Shingū,33.7333,135.9833,52.27,89,20,6.49,JP,1673734384
537,Praia da Vitória,38.7333,-27.0667,53.85,62,40,25.34,PT,1673734673
538,Mackay,-21.15,149.2,75.69,85,100,17.45,AU,1673734673
539,Elban,50.1018,136.5094,-26.28,100,84,2.77,RU,1673734674
540,Codrington,-38.2667,141.9667,62.15,55,73,18.3,AU,1673734674
541,Castlemaine,-37.0667,144.2167,69.04,68,26,16.22,AU,1673734674
542,Staunton,38.1496,-79.0717,36.43,47,0,10.36,US,1673734675
543,Khandyga,62.6667,135.6,-55.57,99,100,1.43,RU,1673734675
544,Bilibino,68.0546,166.4372,-12.77,84,8,7.94,RU,1673734675
545,São Filipe,14.8961,-24.4956,73.94,71,1,9.31,CV,1673734676
546,Ayan,56.45,138.1667,-26.01,69,2,15.28,RU,1673734676
547,Shelburne,44.0787,-80.2041,19.85,84,1,9.84,CA,1673734509
548,High Rock,26.6208,-78.2833,58.24,61,11,26.04,BS,1673734677
549,Torbay,47.6666,-52.7314,54.88,93,75,31.07,CA,1673734398
550,Brzesko,49.9691,20.6061,38.59,86,76,9.04,PL,1673734677
551,Ilulissat,69.2167,-51.1,8.62,43,20,4.61,GL,1673734501
552,Kazygurt,41.7589,69.3864,-2.49,75,0,5.19,KZ,1673734678
553,Sulangan,11.1373,123.7228,79.29,84,100,7.25,PH,1673734678
